{"type":"FeatureCollection","crs":{"type":"name","properties":{"name":"EPSG:4326"}},"features":[{"type":"Feature","id":1,"geometry":{"type":"Point","coordinates":[-87.3360108807975,37.9150521751177]},"properties":{"OBJECTID":1,"MINOP7X020":1,"COMMODITY":"ALUMINUM","SITE_NAME":"EVANSVILLE (WARRICK) SMELTER","COMPANY_NA":"ALCOA INC","STATE_LOCA":"INDIANA","COUNTY":"WARRICK","LATITUDE":37.915,"LONGITUDE":-87.336,"PLANT_MIN":"P"}},{"type":"Feature","id":2,"geometry":{"type":"Point","coordinates":[-86.7859940357961,37.9420624782008]},"properties":{"OBJECTID":2,"MINOP7X020":2,"COMMODITY":"ALUMINUM","SITE_NAME":"HAWESVILLE SMELTER","COMPANY_NA":"CENTURY ALUMINUM CO","STATE_LOCA":"KENTUCKY","COUNTY":"HANCOCK","LATITUDE":37.942,"LONGITUDE":-86.786,"PLANT_MIN":"P"}},{"type":"Feature","id":3,"geometry":{"type":"Point","coordinates":[-87.5000105233669,37.6500510549122]},"properties":{"OBJECTID":3,"MINOP7X020":3,"COMMODITY":"ALUMINUM","SITE_NAME":"SEBREE SMELTER","COMPANY_NA":"ALCAN INC","STATE_LOCA":"KENTUCKY","COUNTY":"HENDERSON","LATITUDE":37.65,"LONGITUDE":-87.5,"PLANT_MIN":"P"}},{"type":"Feature","id":4,"geometry":{"type":"Point","coordinates":[-90.9231036561088,30.1382038392358]},"properties":{"OBJECTID":4,"MINOP7X020":4,"COMMODITY":"ALUMINUM","SITE_NAME":"BURNSIDE REFINERY","COMPANY_NA":"ORMET CORP","STATE_LOCA":"LOUISIANA","COUNTY":"ASCENSION","LATITUDE":30.138,"LONGITUDE":-90.923,"PLANT_MIN":"P"}},{"type":"Feature","id":5,"geometry":{"type":"Point","coordinates":[-90.7550982002218,30.0492067901612]},"properties":{"OBJECTID":5,"MINOP7X020":5,"COMMODITY":"ALUMINUM","SITE_NAME":"GRAMERCY REFINERY","COMPANY_NA":"KAISER ALUMINUM & CHEMICAL CORP","STATE_LOCA":"LOUISIANA","COUNTY":"SAINT JAMES","LATITUDE":30.049,"LONGITUDE":-90.755,"PLANT_MIN":"P"}},{"type":"Feature","id":6,"geometry":{"type":"Point","coordinates":[-77.4687110119037,39.3341100970034]},"properties":{"OBJECTID":6,"MINOP7X020":6,"COMMODITY":"ALUMINUM","SITE_NAME":"FREDERICK (EASTALCO) SMELTER","COMPANY_NA":"ALCOA INC","STATE_LOCA":"MARYLAND","COUNTY":"FREDERICK","LATITUDE":39.334,"LONGITUDE":-77.469,"PLANT_MIN":"P"}},{"type":"Feature","id":7,"geometry":{"type":"Point","coordinates":[-89.5640833678531,36.5100686081797]},"properties":{"OBJECTID":7,"MINOP7X020":7,"COMMODITY":"ALUMINUM","SITE_NAME":"NEW MADRID SMELTER","COMPANY_NA":"NORANDA ALUMINUM INC","STATE_LOCA":"MISSOURI","COUNTY":"NEW MADRID","LATITUDE":36.51,"LONGITUDE":-89.564,"PLANT_MIN":"P"}},{"type":"Feature","id":8,"geometry":{"type":"Point","coordinates":[-114.139970818299,48.3919711914173]},"properties":{"OBJECTID":8,"MINOP7X020":8,"COMMODITY":"ALUMINUM","SITE_NAME":"COLUMBIA FALLS SMELTER","COMPANY_NA":"COLUMBIA FALLS ALUMINUM CO","STATE_LOCA":"MONTANA","COUNTY":"FLATHEAD","LATITUDE":48.392,"LONGITUDE":-114.139,"PLANT_MIN":"P"}},{"type":"Feature","id":9,"geometry":{"type":"Point","coordinates":[-74.7496285645066,44.9830594068661]},"properties":{"OBJECTID":9,"MINOP7X020":9,"COMMODITY":"ALUMINUM","SITE_NAME":"MASSENA (ST. LAWRENCE) SMELTER","COMPANY_NA":"ALCOA INC","STATE_LOCA":"NEW YORK","COUNTY":"SAINT LAWRENCE","LATITUDE":44.983,"LONGITUDE":-74.75,"PLANT_MIN":"P"}},{"type":"Feature","id":10,"geometry":{"type":"Point","coordinates":[-74.880643730124,44.9430579579584]},"properties":{"OBJECTID":10,"MINOP7X020":10,"COMMODITY":"ALUMINUM","SITE_NAME":"MASSENA SMELTER","COMPANY_NA":"ALCOA INC","STATE_LOCA":"NEW YORK","COUNTY":"SAINT LAWRENCE","LATITUDE":44.943,"LONGITUDE":-74.881,"PLANT_MIN":"P"}},{"type":"Feature","id":11,"geometry":{"type":"Point","coordinates":[-80.8728241174391,39.6750842313522]},"properties":{"OBJECTID":11,"MINOP7X020":11,"COMMODITY":"ALUMINUM","SITE_NAME":"HANNIBAL SMELTER","COMPANY_NA":"ORMET CORP","STATE_LOCA":"OHIO","COUNTY":"MONROE","LATITUDE":39.675,"LONGITUDE":-80.873,"PLANT_MIN":"P"}},{"type":"Feature","id":12,"geometry":{"type":"Point","coordinates":[-80.0498112179134,33.0451776999909]},"properties":{"OBJECTID":12,"MINOP7X020":12,"COMMODITY":"ALUMINUM","SITE_NAME":"MOUNT HOLLY SMELTER","COMPANY_NA":"ALCOA INC","STATE_LOCA":"SOUTH CAROLINA","COUNTY":"BERKELEY","LATITUDE":33.045,"LONGITUDE":-80.05,"PLANT_MIN":"P"}},{"type":"Feature","id":13,"geometry":{"type":"Point","coordinates":[-83.9679082100958,35.7810897543886]},"properties":{"OBJECTID":13,"MINOP7X020":13,"COMMODITY":"ALUMINUM","SITE_NAME":"ALCOA SMELTER","COMPANY_NA":"ALCOA INC","STATE_LOCA":"TENNESSEE","COUNTY":"BLOUNT","LATITUDE":35.781,"LONGITUDE":-83.968,"PLANT_MIN":"P"}},{"type":"Feature","id":14,"geometry":{"type":"Point","coordinates":[-96.5542607543303,28.6732776475454]},"properties":{"OBJECTID":14,"MINOP7X020":14,"COMMODITY":"ALUMINUM","SITE_NAME":"POINT COMFORT REFINERY","COMPANY_NA":"ALCOA INC","STATE_LOCA":"TEXAS","COUNTY":"CALHOUN","LATITUDE":28.673,"LONGITUDE":-96.554,"PLANT_MIN":"P"}},{"type":"Feature","id":15,"geometry":{"type":"Point","coordinates":[-97.0762728475139,30.5622076494634]},"properties":{"OBJECTID":15,"MINOP7X020":15,"COMMODITY":"ALUMINUM","SITE_NAME":"ROCKDALE SMELTER","COMPANY_NA":"ALCOA INC","STATE_LOCA":"TEXAS","COUNTY":"MILAM","LATITUDE":30.562,"LONGITUDE":-97.076,"PLANT_MIN":"P"}},{"type":"Feature","id":16,"geometry":{"type":"Point","coordinates":[-97.2502759073072,27.8833070837549]},"properties":{"OBJECTID":16,"MINOP7X020":16,"COMMODITY":"ALUMINUM","SITE_NAME":"CORPUS CHRISTI REFINERY","COMPANY_NA":"BPU REYNOLDS","STATE_LOCA":"TEXAS","COUNTY":"SAN PATRICIO","LATITUDE":27.883,"LONGITUDE":-97.25,"PLANT_MIN":"P"}},{"type":"Feature","id":17,"geometry":{"type":"Point","coordinates":[-120.68218410801,45.728852802215]},"properties":{"OBJECTID":17,"MINOP7X020":17,"COMMODITY":"ALUMINUM","SITE_NAME":"GOLDENDALE SMELTER","COMPANY_NA":"GOLDENDALE ALUMINUM CO","STATE_LOCA":"WASHINGTON","COUNTY":"KLICKITAT","LATITUDE":45.729,"LONGITUDE":-120.681,"PLANT_MIN":"P"}},{"type":"Feature","id":18,"geometry":{"type":"Point","coordinates":[-122.707304599628,48.846837183789]},"properties":{"OBJECTID":18,"MINOP7X020":18,"COMMODITY":"ALUMINUM","SITE_NAME":"FERNDALE (INTALCO) SMELTER","COMPANY_NA":"ALCOA INC","STATE_LOCA":"WASHINGTON","COUNTY":"WHATCOM","LATITUDE":48.847,"LONGITUDE":-122.706,"PLANT_MIN":"P"}},{"type":"Feature","id":19,"geometry":{"type":"Point","coordinates":[-81.8258593517277,38.9340885545431]},"properties":{"OBJECTID":19,"MINOP7X020":19,"COMMODITY":"ALUMINUM","SITE_NAME":"RAVENSWOOD SMELTER","COMPANY_NA":"CENTURY ALUMINUM CO","STATE_LOCA":"WEST VIRGINIA","COUNTY":"JACKSON","LATITUDE":38.934,"LONGITUDE":-81.826,"PLANT_MIN":"P"}},{"type":"Feature","id":20,"geometry":{"type":"Point","coordinates":[-115.598006908092,47.5929386135261]},"properties":{"OBJECTID":20,"MINOP7X020":20,"COMMODITY":"ANTIMONY","SITE_NAME":"THOMPSON FALLS","COMPANY_NA":"US ANTIMONY CORP","STATE_LOCA":"MONTANA","COUNTY":"SANDERS","LATITUDE":47.593,"LONGITUDE":-115.597,"PLANT_MIN":"P"}},{"type":"Feature","id":21,"geometry":{"type":"Point","coordinates":[-95.0362135114444,29.6572336647018]},"properties":{"OBJECTID":21,"MINOP7X020":21,"COMMODITY":"ANTIMONY","SITE_NAME":"LA PORTE","COMPANY_NA":"LAUREL INDUSTRIES INC","STATE_LOCA":"TEXAS","COUNTY":"HARRIS","LATITUDE":29.657,"LONGITUDE":-95.036,"PLANT_MIN":"P"}},{"type":"Feature","id":22,"geometry":{"type":"Point","coordinates":[-112.548793345237,39.4889580324872]},"properties":{"OBJECTID":22,"MINOP7X020":22,"COMMODITY":"BERYLLIUM","SITE_NAME":"DELTA","COMPANY_NA":"BRUSH WELLMAN INC","STATE_LOCA":"UTAH","COUNTY":"MILLARD","LATITUDE":39.489,"LONGITUDE":-112.548,"PLANT_MIN":"P"}},{"type":"Feature","id":23,"geometry":{"type":"Point","coordinates":[-87.4020146834309,36.5110558281639]},"properties":{"OBJECTID":23,"MINOP7X020":23,"COMMODITY":"CADMIUM","SITE_NAME":"CLARKSVILLE","COMPANY_NA":"PASMINCO LTD","STATE_LOCA":"TENNESSEE","COUNTY":"MONTGOMERY","LATITUDE":36.511,"LONGITUDE":-87.402,"PLANT_MIN":"P"}},{"type":"Feature","id":24,"geometry":{"type":"Point","coordinates":[-110.062635385115,32.1000836790185]},"properties":{"OBJECTID":24,"MINOP7X020":24,"COMMODITY":"COPPER","SITE_NAME":"JOHNSON CAMP MINE","COMPANY_NA":"NORD RESOURCES CORP","STATE_LOCA":"ARIZONA","COUNTY":"COCHISE","LATITUDE":32.1,"LONGITUDE":-110.062,"PLANT_MIN":"M/P"}},{"type":"Feature","id":25,"geometry":{"type":"Point","coordinates":[-110.956680827258,33.3790601008429]},"properties":{"OBJECTID":25,"MINOP7X020":25,"COMMODITY":"COPPER","SITE_NAME":"MIAMI UNIT","COMPANY_NA":"BHP COPPER INC","STATE_LOCA":"ARIZONA","COUNTY":"GILA","LATITUDE":33.379,"LONGITUDE":-110.956,"PLANT_MIN":"M/P"}},{"type":"Feature","id":26,"geometry":{"type":"Point","coordinates":[-110.964681283414,33.4120592286504]},"properties":{"OBJECTID":26,"MINOP7X020":26,"COMMODITY":"COPPER","SITE_NAME":"PINTO VALLEY MINE","COMPANY_NA":"BHP COPPER INC","STATE_LOCA":"ARIZONA","COUNTY":"GILA","LATITUDE":33.412,"LONGITUDE":-110.964,"PLANT_MIN":"M/P"}},{"type":"Feature","id":27,"geometry":{"type":"Point","coordinates":[-110.861678209881,33.4130598611237]},"properties":{"OBJECTID":27,"MINOP7X020":27,"COMMODITY":"COPPER","SITE_NAME":"MIAMI","COMPANY_NA":"PHELPS DODGE CORP","STATE_LOCA":"ARIZONA","COUNTY":"GILA","LATITUDE":33.413,"LONGITUDE":-110.861,"PLANT_MIN":"P"}},{"type":"Feature","id":28,"geometry":{"type":"Point","coordinates":[-110.789672184424,33.00207088936]},"properties":{"OBJECTID":28,"MINOP7X020":28,"COMMODITY":"COPPER","SITE_NAME":"HYDEN/RAY","COMPANY_NA":"ASARCO INC","STATE_LOCA":"ARIZONA","COUNTY":"GILA","LATITUDE":33.002,"LONGITUDE":-110.789,"PLANT_MIN":"P"}},{"type":"Feature","id":29,"geometry":{"type":"Point","coordinates":[-109.342638836713,33.0670679486269]},"properties":{"OBJECTID":29,"MINOP7X020":29,"COMMODITY":"COPPER","SITE_NAME":"MORENCI MINE","COMPANY_NA":"PHELPS DODGE CORP","STATE_LOCA":"ARIZONA","COUNTY":"GREENLEE","LATITUDE":33.067,"LONGITUDE":-109.342,"PLANT_MIN":"M/P"}},{"type":"Feature","id":30,"geometry":{"type":"Point","coordinates":[-111.540682468721,32.4200746038599]},"properties":{"OBJECTID":30,"MINOP7X020":30,"COMMODITY":"COPPER","SITE_NAME":"SILVER BELL MINE","COMPANY_NA":"ASARCO INC","STATE_LOCA":"ARIZONA","COUNTY":"PIMA","LATITUDE":32.42,"LONGITUDE":-111.54,"PLANT_MIN":"M/P"}},{"type":"Feature","id":31,"geometry":{"type":"Point","coordinates":[-111.148661613543,31.8710886742029]},"properties":{"OBJECTID":31,"MINOP7X020":31,"COMMODITY":"COPPER","SITE_NAME":"SIERRITA MINE","COMPANY_NA":"PHELPS DODGE CORP","STATE_LOCA":"ARIZONA","COUNTY":"PIMA","LATITUDE":31.871,"LONGITUDE":-111.148,"PLANT_MIN":"M/P"}},{"type":"Feature","id":32,"geometry":{"type":"Point","coordinates":[-110.990680163958,33.1830652373708]},"properties":{"OBJECTID":32,"MINOP7X020":32,"COMMODITY":"COPPER","SITE_NAME":"RAY MINE","COMPANY_NA":"ASARCO INC","STATE_LOCA":"ARIZONA","COUNTY":"PINAL","LATITUDE":33.183,"LONGITUDE":-110.99,"PLANT_MIN":"M/P"}},{"type":"Feature","id":33,"geometry":{"type":"Point","coordinates":[-113.23676507245,34.590024223639]},"properties":{"OBJECTID":33,"MINOP7X020":33,"COMMODITY":"COPPER","SITE_NAME":"BAGDAD MINE","COMPANY_NA":"PHELPS DODGE CORP","STATE_LOCA":"ARIZONA","COUNTY":"YAVAPAI","LATITUDE":34.59,"LONGITUDE":-113.236,"PLANT_MIN":"M/P"}},{"type":"Feature","id":34,"geometry":{"type":"Point","coordinates":[-89.5831613069487,46.7499557985213]},"properties":{"OBJECTID":34,"MINOP7X020":34,"COMMODITY":"COPPER","SITE_NAME":"WHITE PINE COPPER REFINERY","COMPANY_NA":"BHP COPPER INC","STATE_LOCA":"MICHIGAN","COUNTY":"ONTONAGON","LATITUDE":46.75,"LONGITUDE":-89.583,"PLANT_MIN":"P"}},{"type":"Feature","id":35,"geometry":{"type":"Point","coordinates":[-112.510867252821,46.0049330789984]},"properties":{"OBJECTID":35,"MINOP7X020":35,"COMMODITY":"COPPER","SITE_NAME":"CONTINENTAL EAST MINE","COMPANY_NA":"MONTANA RESOURCES","STATE_LOCA":"MONTANA","COUNTY":"SILVER BOW","LATITUDE":46.005,"LONGITUDE":-112.51,"PLANT_MIN":"M/P"}},{"type":"Feature","id":36,"geometry":{"type":"Point","coordinates":[-108.169610099926,32.7260818164226]},"properties":{"OBJECTID":36,"MINOP7X020":36,"COMMODITY":"COPPER","SITE_NAME":"CHINO MINE","COMPANY_NA":"PHELPS DODGE CORP","STATE_LOCA":"NEW MEXICO","COUNTY":"GRANT","LATITUDE":32.726,"LONGITUDE":-108.169,"PLANT_MIN":"M/P"}},{"type":"Feature","id":37,"geometry":{"type":"Point","coordinates":[-108.372614297412,32.6360833398742]},"properties":{"OBJECTID":37,"MINOP7X020":37,"COMMODITY":"COPPER","SITE_NAME":"TYRONE MINE","COMPANY_NA":"PHELPS DODGE CORP","STATE_LOCA":"NEW MEXICO","COUNTY":"GRANT","LATITUDE":32.636,"LONGITUDE":-108.372,"PLANT_MIN":"M/P"}},{"type":"Feature","id":38,"geometry":{"type":"Point","coordinates":[-106.393550015021,31.7621142920409]},"properties":{"OBJECTID":38,"MINOP7X020":38,"COMMODITY":"COPPER","SITE_NAME":"EL PASO","COMPANY_NA":"PHELPS DODGE CORP","STATE_LOCA":"TEXAS","COUNTY":"EL PASO","LATITUDE":31.762,"LONGITUDE":-106.393,"PLANT_MIN":"P"}},{"type":"Feature","id":39,"geometry":{"type":"Point","coordinates":[-112.09978725258,40.7219513878463]},"properties":{"OBJECTID":39,"MINOP7X020":39,"COMMODITY":"COPPER","SITE_NAME":"GARFIELD","COMPANY_NA":"KENNECOTT UTAH COPPER CORP","STATE_LOCA":"UTAH","COUNTY":"SALT LAKE","LATITUDE":40.722,"LONGITUDE":-112.099,"PLANT_MIN":"P"}},{"type":"Feature","id":40,"geometry":{"type":"Point","coordinates":[-113.23676507245,34.590024223639]},"properties":{"OBJECTID":40,"MINOP7X020":40,"COMMODITY":"GOLD","SITE_NAME":"BAGDAD MINE","COMPANY_NA":"PHELPS DODGE CORP","STATE_LOCA":"ARIZONA","COUNTY":"YAVAPAI","LATITUDE":34.59,"LONGITUDE":-113.236,"PLANT_MIN":"M/P"}},{"type":"Feature","id":41,"geometry":{"type":"Point","coordinates":[-71.2984986371024,41.9771078695325]},"properties":{"OBJECTID":41,"MINOP7X020":41,"COMMODITY":"GOLD","SITE_NAME":"NORTH ATTLEBORO","COMPANY_NA":"METALOR USA REFINING CORP","STATE_LOCA":"MASSACHUSETTS","COUNTY":"BRISTOL","LATITUDE":41.977,"LONGITUDE":-71.299,"PLANT_MIN":"P"}},{"type":"Feature","id":42,"geometry":{"type":"Point","coordinates":[-82.9558737542703,34.6511070124786]},"properties":{"OBJECTID":42,"MINOP7X020":42,"COMMODITY":"GOLD","SITE_NAME":"SENECA","COMPANY_NA":"ENGELHARD CORP","STATE_LOCA":"SOUTH CAROLINA","COUNTY":"OCONEE","LATITUDE":34.651,"LONGITUDE":-82.956,"PLANT_MIN":"P"}},{"type":"Feature","id":43,"geometry":{"type":"Point","coordinates":[-112.09978725258,40.7219513878463]},"properties":{"OBJECTID":43,"MINOP7X020":43,"COMMODITY":"GOLD","SITE_NAME":"GARFIELD","COMPANY_NA":"KENNECOTT UTAH COPPER CORP","STATE_LOCA":"UTAH","COUNTY":"SALT LAKE","LATITUDE":40.722,"LONGITUDE":-112.099,"PLANT_MIN":"P"}},{"type":"Feature","id":44,"geometry":{"type":"Point","coordinates":[-111.890781200992,40.7609521665092]},"properties":{"OBJECTID":44,"MINOP7X020":44,"COMMODITY":"GOLD","SITE_NAME":"SALT LAKE CITY","COMPANY_NA":"JOHNSON MATTHEY","STATE_LOCA":"UTAH","COUNTY":"SALT LAKE","LATITUDE":40.761,"LONGITUDE":-111.89,"PLANT_MIN":"P"}},{"type":"Feature","id":45,"geometry":{"type":"Point","coordinates":[-87.597142489834,46.4439461101248]},"properties":{"OBJECTID":45,"MINOP7X020":45,"COMMODITY":"IRON","SITE_NAME":"EMPIRE MINE","COMPANY_NA":"CLEVELAND CLIFFS INC","STATE_LOCA":"MICHIGAN","COUNTY":"MARQUETTE","LATITUDE":46.444,"LONGITUDE":-87.597,"PLANT_MIN":"M/P"}},{"type":"Feature","id":46,"geometry":{"type":"Point","coordinates":[-87.6421421269576,46.4469460218414]},"properties":{"OBJECTID":46,"MINOP7X020":46,"COMMODITY":"IRON","SITE_NAME":"TILDEN MINE","COMPANY_NA":"CLEVELAND CLIFFS INC","STATE_LOCA":"MICHIGAN","COUNTY":"MARQUETTE","LATITUDE":46.447,"LONGITUDE":-87.642,"PLANT_MIN":"M/P"}},{"type":"Feature","id":47,"geometry":{"type":"Point","coordinates":[-92.5541922546688,47.4439369692157]},"properties":{"OBJECTID":47,"MINOP7X020":47,"COMMODITY":"IRON","SITE_NAME":"UNITED TACONITE MINE","COMPANY_NA":"CLEVELAND CLIFFS INC","STATE_LOCA":"MINNESOTA","COUNTY":"SAINT LOUIS","LATITUDE":47.444,"LONGITUDE":-92.554,"PLANT_MIN":"M/P"}},{"type":"Feature","id":48,"geometry":{"type":"Point","coordinates":[-92.9761953089663,47.4819399167937]},"properties":{"OBJECTID":48,"MINOP7X020":48,"COMMODITY":"IRON","SITE_NAME":"HIBBING TACONITE MINE","COMPANY_NA":"HIBBING TACONITE CO","STATE_LOCA":"MINNESOTA","COUNTY":"SAINT LOUIS","LATITUDE":47.482,"LONGITUDE":-92.976,"PLANT_MIN":"M/P"}},{"type":"Feature","id":49,"geometry":{"type":"Point","coordinates":[-92.5211890799121,47.5609337285088]},"properties":{"OBJECTID":49,"MINOP7X020":49,"COMMODITY":"IRON","SITE_NAME":"MINORCA MINE","COMPANY_NA":"INLAND STEEL MINING CO","STATE_LOCA":"MINNESOTA","COUNTY":"SAINT LOUIS","LATITUDE":47.561,"LONGITUDE":-92.521,"PLANT_MIN":"M/P"}},{"type":"Feature","id":50,"geometry":{"type":"Point","coordinates":[-91.9421681492407,47.6619263882922]},"properties":{"OBJECTID":50,"MINOP7X020":50,"COMMODITY":"IRON","SITE_NAME":"PETER MITCHELL MINE","COMPANY_NA":"NORTHSHORE MINING CO","STATE_LOCA":"MINNESOTA","COUNTY":"SAINT LOUIS","LATITUDE":47.662,"LONGITUDE":-91.942,"PLANT_MIN":"M/P"}},{"type":"Feature","id":51,"geometry":{"type":"Point","coordinates":[-93.0622002335539,47.4139422812113]},"properties":{"OBJECTID":51,"MINOP7X020":51,"COMMODITY":"IRON","SITE_NAME":"KEETAC MINE","COMPANY_NA":"US STEEL","STATE_LOCA":"MINNESOTA","COUNTY":"SAINT LOUIS","LATITUDE":47.414,"LONGITUDE":-93.062,"PLANT_MIN":"M/P"}},{"type":"Feature","id":52,"geometry":{"type":"Point","coordinates":[-92.6441895450115,47.5239355403929]},"properties":{"OBJECTID":52,"MINOP7X020":52,"COMMODITY":"IRON","SITE_NAME":"MINNTAC MINE","COMPANY_NA":"US STEEL","STATE_LOCA":"MINNESOTA","COUNTY":"SAINT LOUIS","LATITUDE":47.524,"LONGITUDE":-92.644,"PLANT_MIN":"M/P"}},{"type":"Feature","id":53,"geometry":{"type":"Point","coordinates":[-90.6921264070081,37.4820562425016]},"properties":{"OBJECTID":53,"MINOP7X020":53,"COMMODITY":"LEAD","SITE_NAME":"GLOVER SMELTER","COMPANY_NA":"DOE RUN RESOURCES CORP","STATE_LOCA":"MISSOURI","COUNTY":"IRON","LATITUDE":37.482,"LONGITUDE":-90.692,"PLANT_MIN":"P"}},{"type":"Feature","id":54,"geometry":{"type":"Point","coordinates":[-90.3781261810784,38.2610616639646]},"properties":{"OBJECTID":54,"MINOP7X020":54,"COMMODITY":"LEAD","SITE_NAME":"HERCULANEUM SMELTER","COMPANY_NA":"DOE RUN RESOURCES CORP","STATE_LOCA":"MISSOURI","COUNTY":"JEFFERSON","LATITUDE":38.261,"LONGITUDE":-90.378,"PLANT_MIN":"P"}},{"type":"Feature","id":55,"geometry":{"type":"Point","coordinates":[-112.732815762737,40.9139420289015]},"properties":{"OBJECTID":55,"MINOP7X020":55,"COMMODITY":"MAGNESIUM METAL","SITE_NAME":"ROWLEY","COMPANY_NA":"US MAGNESIUM LLC","STATE_LOCA":"UTAH","COUNTY":"SALT LAKE","LATITUDE":40.914,"LONGITUDE":-112.732,"PLANT_MIN":"P"}},{"type":"Feature","id":56,"geometry":{"type":"Point","coordinates":[-111.148661613543,31.8710886742029]},"properties":{"OBJECTID":56,"MINOP7X020":56,"COMMODITY":"RHENIUM","SITE_NAME":"SIERRITA MINE","COMPANY_NA":"PHELPS DODGE CORP","STATE_LOCA":"ARIZONA","COUNTY":"PIMA","LATITUDE":31.871,"LONGITUDE":-111.148,"PLANT_MIN":"M/P"}},{"type":"Feature","id":57,"geometry":{"type":"Point","coordinates":[-113.23676507245,34.590024223639]},"properties":{"OBJECTID":57,"MINOP7X020":57,"COMMODITY":"RHENIUM","SITE_NAME":"BAGDAD MINE","COMPANY_NA":"PHELPS DODGE CORP","STATE_LOCA":"ARIZONA","COUNTY":"YAVAPAI","LATITUDE":34.59,"LONGITUDE":-113.236,"PLANT_MIN":"M/P"}},{"type":"Feature","id":58,"geometry":{"type":"Point","coordinates":[-112.510867252821,46.0049330789984]},"properties":{"OBJECTID":58,"MINOP7X020":58,"COMMODITY":"RHENIUM","SITE_NAME":"CONTINENTAL EAST MINE","COMPANY_NA":"MONTANA RESOURCES","STATE_LOCA":"MONTANA","COUNTY":"SILVER BOW","LATITUDE":46.005,"LONGITUDE":-112.51,"PLANT_MIN":"M/P"}},{"type":"Feature","id":59,"geometry":{"type":"Point","coordinates":[-106.393550015021,31.7621142920409]},"properties":{"OBJECTID":59,"MINOP7X020":59,"COMMODITY":"SELENIUM","SITE_NAME":"EL PASO","COMPANY_NA":"PHELPS DODGE CORP","STATE_LOCA":"TEXAS","COUNTY":"EL PASO","LATITUDE":31.762,"LONGITUDE":-106.393,"PLANT_MIN":"P"}},{"type":"Feature","id":60,"geometry":{"type":"Point","coordinates":[-110.990680163958,33.1830652373708]},"properties":{"OBJECTID":60,"MINOP7X020":60,"COMMODITY":"SILVER","SITE_NAME":"RAY MINE","COMPANY_NA":"ASARCO INC","STATE_LOCA":"ARIZONA","COUNTY":"PINAL","LATITUDE":33.183,"LONGITUDE":-110.99,"PLANT_MIN":"M/P"}},{"type":"Feature","id":61,"geometry":{"type":"Point","coordinates":[-113.23676507245,34.590024223639]},"properties":{"OBJECTID":61,"MINOP7X020":61,"COMMODITY":"SILVER","SITE_NAME":"BAGDAD MINE","COMPANY_NA":"PHELPS DODGE CORP","STATE_LOCA":"ARIZONA","COUNTY":"YAVAPAI","LATITUDE":34.59,"LONGITUDE":-113.236,"PLANT_MIN":"M/P"}},{"type":"Feature","id":62,"geometry":{"type":"Point","coordinates":[-71.2984986371024,41.9771078695325]},"properties":{"OBJECTID":62,"MINOP7X020":62,"COMMODITY":"SILVER","SITE_NAME":"NORTH ATTLEBORO","COMPANY_NA":"METALOR USA REFINING CORP","STATE_LOCA":"MASSACHUSETTS","COUNTY":"BRISTOL","LATITUDE":41.977,"LONGITUDE":-71.299,"PLANT_MIN":"P"}},{"type":"Feature","id":63,"geometry":{"type":"Point","coordinates":[-112.510867252821,46.0049330789984]},"properties":{"OBJECTID":63,"MINOP7X020":63,"COMMODITY":"SILVER","SITE_NAME":"CONTINENTAL EAST MINE","COMPANY_NA":"MONTANA RESOURCES","STATE_LOCA":"MONTANA","COUNTY":"SILVER BOW","LATITUDE":46.005,"LONGITUDE":-112.51,"PLANT_MIN":"M/P"}},{"type":"Feature","id":64,"geometry":{"type":"Point","coordinates":[-82.9558737542703,34.6511070124786]},"properties":{"OBJECTID":64,"MINOP7X020":64,"COMMODITY":"SILVER","SITE_NAME":"SENECA","COMPANY_NA":"ENGELHARD CORP","STATE_LOCA":"SOUTH CAROLINA","COUNTY":"OCONEE","LATITUDE":34.651,"LONGITUDE":-82.956,"PLANT_MIN":"P"}},{"type":"Feature","id":65,"geometry":{"type":"Point","coordinates":[-112.09978725258,40.7219513878463]},"properties":{"OBJECTID":65,"MINOP7X020":65,"COMMODITY":"SILVER","SITE_NAME":"GARFIELD","COMPANY_NA":"KENNECOTT UTAH COPPER CORP","STATE_LOCA":"UTAH","COUNTY":"SALT LAKE","LATITUDE":40.722,"LONGITUDE":-112.099,"PLANT_MIN":"P"}},{"type":"Feature","id":66,"geometry":{"type":"Point","coordinates":[-111.890781200992,40.7609521665092]},"properties":{"OBJECTID":66,"MINOP7X020":66,"COMMODITY":"SILVER","SITE_NAME":"SALT LAKE CITY","COMPANY_NA":"JOHNSON MATTHEY","STATE_LOCA":"UTAH","COUNTY":"SALT LAKE","LATITUDE":40.761,"LONGITUDE":-111.89,"PLANT_MIN":"P"}},{"type":"Feature","id":67,"geometry":{"type":"Point","coordinates":[-84.7879421395181,34.1511040583056]},"properties":{"OBJECTID":67,"MINOP7X020":67,"COMMODITY":"STRONTIUM","SITE_NAME":"CARTERSVILLE PLANT","COMPANY_NA":"CHEMICAL PRODUCTS CORP","STATE_LOCA":"GEORGIA","COUNTY":"BARTOW","LATITUDE":34.151,"LONGITUDE":-84.788,"PLANT_MIN":"P"}},{"type":"Feature","id":68,"geometry":{"type":"Point","coordinates":[-115.001394213872,36.0407815569233]},"properties":{"OBJECTID":68,"MINOP7X020":68,"COMMODITY":"TITANIUM METAL","SITE_NAME":"HENDERSON SPONGE PLANT","COMPANY_NA":"TITANIUM METALS CORP OF AMERICA","STATE_LOCA":"NEVADA","COUNTY":"CLARK","LATITUDE":36.0408,"LONGITUDE":-115.000556,"PLANT_MIN":"P"}},{"type":"Feature","id":69,"geometry":{"type":"Point","coordinates":[-111.997384186031,40.7256521457299]},"properties":{"OBJECTID":69,"MINOP7X020":69,"COMMODITY":"TITANIUM METAL","SITE_NAME":"SALT LAKE CITY SPONGE PLANT","COMPANY_NA":"ALTA GROUP","STATE_LOCA":"UTAH","COUNTY":"SALT LAKE","LATITUDE":40.7257,"LONGITUDE":-111.9966,"PLANT_MIN":"P"}},{"type":"Feature","id":70,"geometry":{"type":"Point","coordinates":[-90.1721165212604,38.6010583089937]},"properties":{"OBJECTID":70,"MINOP7X020":70,"COMMODITY":"ZINC","SITE_NAME":"SAUGET PLANT","COMPANY_NA":"BIG RIVER ZINC CORP","STATE_LOCA":"ILLINOIS","COUNTY":"SAINT CLAIR","LATITUDE":38.601,"LONGITUDE":-90.172,"PLANT_MIN":"P"}},{"type":"Feature","id":71,"geometry":{"type":"Point","coordinates":[-87.4020146834309,36.5110558281639]},"properties":{"OBJECTID":71,"MINOP7X020":71,"COMMODITY":"ZINC","SITE_NAME":"CLARKSVILLE","COMPANY_NA":"PASMINCO LTD","STATE_LOCA":"TENNESSEE","COUNTY":"MONTGOMERY","LATITUDE":36.511,"LONGITUDE":-87.402,"PLANT_MIN":"P"}}]}